[
  {
    "lat": -1.4523943766650245,
    "lng": -48.481510593011585,
    "category": "cultura",
    "imgUrl": "/static/assets/img/basilica_nazare.jpg",
    "title": "Basílica de Nazaré",
    "rating": 4,
    "reviews": 0,
    "hours": "05:00–21:00",
    "address": "Av. Nª Sra. de Nazaré, 1300 – Nazaré, Belém – PA, 66035-145",
    "phone": "(91) 3214-3126",
    "price": "Gratuito"
  },
  {
    "lat": -1.453411,
    "lng": -48.493003,
    "category": "cultura",
    "imgUrl": "/static/assets/img/cinema_olympia.jpg",
    "title": "Cine Olympia",
    "rating": 3,
    "reviews": 0,
    "hours": "Veja programação no site",
    "address": "R. Arcipreste Manoel Teodoro, Batista Campos, Belém – PA, 66017-080",
    "phone": "(91) 3230-5380",
    "price": "R$ 12–20"
  },
  {
    "lat": -1.45234,
    "lng": -48.50375,
    "category": "praca",
    "imgUrl": "/static/assets/img/ver_o_peso.jpg",
    "title": "Mercado Ver-o-Peso",
    "rating": 5,
    "reviews": 0,
    "hours": "06:00–18:00",
    "address": "Avenida Boulevard Castilhos França, s/n – Campina, Belém – PA, 66017-140",
    "phone": "(91) 4009-3000",
    "price": "Gratuito"
  },
  {
    "lat": -1.4500462,
    "lng": -48.5012718,
    "category": "praca",
    "imgUrl": "/static/assets/img/estacao_docas.jpg",
    "title": "Estação das Docas",
    "rating": 4,
    "reviews": 0,
    "hours": "10:00–22:00",
    "address": "Av. Mal. Hermes, S/N – Campina, Belém – PA, 66010-020",
    "phone": "(91) 4009-5400",
    "price": "Gratuito"
  },
  {
    "lat": -1.4488419793550833,
    "lng": -48.50037426474599,
    "category": "loja",
    "imgUrl": "/static/assets/img/sorveteria_cairu.jpg",
    "title": "Sorveteria Cairu",
    "rating": 4,
    "reviews": 0,
    "hours": "09:00–22:00",
    "address": "Blvd. Castilhos França, 707 – Campina, Belém – PA, 66010-020",
    "phone": "(91) 3201-0718",
    "price": "R$ 10–25"
  },
  {
    "lat": -1.459072189955288,
    "lng": -48.49095740002856,
    "category": "loja",
    "imgUrl": "/static/assets/img/sorveteria_cairu.jpg",
    "title": "Sorveteria Cairu (2ª Unidade)",
    "rating": 4,
    "reviews": 0,
    "hours": "09:00–22:00",
    "address": "Av. Conselheiro Furtado, 786 – Batista Campos, Belém – PA, 66025-160",
    "phone": "(91) 3201-0718",
    "price": "R$ 10–25"
  },
  {
    "lat": -1.44197,
    "lng": -48.484,
    "category": "loja",
    "imgUrl": "/static/assets/img/sorveteria_cairu.jpg",
    "title": "Sorveteria Cairu (3ª Unidade)",
    "rating": 4,
    "reviews": 0,
    "hours": "09:00–22:00",
    "address": "Tv. Dom Romualdo de Seixas, 1139 – Umarizal, Belém – PA, 66055-200",
    "phone": "(91) 3201-0718",
    "price": "R$ 10–25"
  },
  {
    "lat": -1.4522587766696307,
    "lng": -48.4773731930116,
    "category": "cultura",
    "imgUrl": "/static/assets/img/museu_goeldi.jpg",
    "title": "Museu Paraense Emílio Goeldi",
    "rating": 5,
    "reviews": 0,
    "hours": "09:00–17:00",
    "address": "Av. Gov Magalhães Barata, 376 – São Brás, Belém – PA, 66040-170",
    "phone": "(91) 3246-2170",
    "price": "R$ 12 (inteira)"
  },
  {
    "lat": -1.4645973,
    "lng": -48.5056815,
    "category": "praca",
    "imgUrl": "/static/assets/img/mangal_das_garcas.jpg",
    "title": "Mangal das Garças",
    "rating": 4,
    "reviews": 0,
    "hours": "09:00–18:00",
    "address": "Passagem Carneiro da Rocha, s/n – Cidade Velha, Belém – PA, 66020-160",
    "phone": "(91) 4009-5000",
    "price": "R$ 15"
  },
  {
    "lat": -1.455075,
    "lng": -48.505756,
    "category": "cultura",
    "imgUrl": "/static/assets/img/casa_onze_janelas.jpg",
    "title": "Casa das Onze Janelas",
    "rating": 4,
    "reviews": 0,
    "hours": "09:00–17:00",
    "address": "Rua Siqueira Mendes, 874 – Cidade Velha, Belém – PA, 66020-600",
    "phone": "(91) 3241-9674",
    "price": "R$ 10"
  },
  {
    "lat": -1.454414,
    "lng": -48.505403,
    "category": "cultura",
    "imgUrl": "/static/assets/img/forte_presepio.jpg",
    "title": "Forte do Presépio",
    "rating": 4,
    "reviews": 0,
    "hours": "08:00–17:00",
    "address": "Praça do Forte, s/n – Cidade Velha, Belém – PA, 66010-000",
    "phone": "(91) 3230-3123",
    "price": "R$ 8"
  },
  {
    "lat": -1.452778,
    "lng": -48.493611,
    "category": "cultura",
    "imgUrl": "/static/assets/img/theatro_da_paz.jpg",
    "title": "Theatro da Paz",
    "rating": 5,
    "reviews": 0,
    "hours": "10:00–18:00",
    "address": "Praça da República, s/n – Campina, Belém – PA, 66017-080",
    "phone": "(91) 3241-7070",
    "price": "R$ 16"
  },
  {
    "lat": -1.4528,
    "lng": -48.4953,
    "category": "hotel",
    "imgUrl": "/static/assets/img/hotel_grao_para.jpg",
    "title": "Hotel Grão Pará",
    "rating": 4,
    "reviews": 0,
    "hours": "—",
    "address": "Avenida Presidente Vargas, 718 – Belém – PA, 66010-000",
    "phone": "",
    "price": ""
  },
  {
    "lat": -1.44483,
    "lng": -48.48001,
    "category": "restaurant",
    "imgUrl": "/static/assets/img/amazonia_na_cuia.jpg",
    "title": "Amazônia Na Cuia",
    "rating": 4,
    "reviews": 0,
    "hours": "11:00–23:00",
    "address": "Rua Domingos Marreiros, 851 – Umarizal, Belém – PA, 66063-010",
    "phone": "",
    "price": ""
  },
  {
    "lat": -1.45676,
    "lng": -48.49398,
    "category": "hotel",
    "imgUrl": "/static/assets/img/ibis_styles_batista_campos.jpg",
    "title": "ibis Styles Belém Batista Campos",
    "rating": 4,
    "reviews": 0,
    "hours": "—",
    "address": "Rua Presidente Pernambuco, 116 – Batista Campos, Belém – PA, 66013-220",
    "phone": "",
    "price": ""
  },
  {
    "lat": -1.45748,
    "lng": -48.49146,
    "category": "hotel",
    "imgUrl": "/static/assets/img/ibis_styles_batista_campos.jpg",
    "title": "ibis Styles Belém do Pará",
    "rating": 4,
    "reviews": 0,
    "hours": "—",
    "address": "Av. Gentil Bittencourt, 85 – Batista Campos, Belém – PA, 66015-140",
    "phone": "+55 91 3323-7171",
    "price": ""
  },
  {
    "lat": -1.46308,
    "lng": -48.50423,
    "category": "hotel",
    "imgUrl": "/static/assets/img/atrium_quinta_de_pedras.jpg",
    "title": "Atrium Hotel Quinta de Pedras",
    "rating": 4,
    "reviews": 0,
    "hours": "—",
    "address": "Rua Dr. Assis, 834 – Cidade Velha, Belém – PA, 66020-600",
    "phone": "0800 1515 123",
    "price": ""
  },
  {
    "lat": -1.44572,
    "lng": -48.48906,
    "category": "mall",
    "imgUrl": "/static/assets/img/shopping_boulevard.jpg",
    "title": "Shopping Boulevard",
    "rating": 4,
    "reviews": 0,
    "hours": "10:00–22:00",
    "address": "Avenida Visconde de Souza Franco, 776 – Reduto, Belém – PA, 66053-972",
    "phone": "",
    "price": ""
  },
  {
    "lat": -1.45786,
    "lng": -48.49465,
    "category": "mall",
    "imgUrl": "/static/assets/img/patio_belem.jpg",
    "title": "Pátio Belém",
    "rating": 4,
    "reviews": 0,
    "hours": "10:00–22:00",
    "address": "Tv. Padre Eutíquio, 1078 – Batista Campos, Belém – PA, 66023-710",
    "phone": "",
    "price": ""
  },
  {
    "lat": -1.43715,
    "lng": -48.4882,
    "category": "restaurant",
    "imgUrl": "/static/assets/img/restaurante_ver_o_acai.jpg",
    "title": "Restaurante Ver-O-Açaí",
    "rating": 4,
    "reviews": 0,
    "hours": "07:00–20:00",
    "address": "Tv. Dom Pedro I, 599 – Umarizal, Belém – PA, 66050-100",
    "phone": "(91) 3223-4567",
    "price": ""
  },
  {
    "lat": -1.43319,
    "lng": -48.46052,
    "category": "restaurant",
    "imgUrl": "/static/assets/img/restaurante_ver_o_acai.jpg",
    "title": "Restaurante Ver-O-Açaí (2ª Unidade)",
    "rating": 4,
    "reviews": 0,
    "hours": "07:00–20:00",
    "address": "Av. Rômulo Maiorana, 1677 – Marco, Belém – PA, 66093-674",
    "phone": "(91) 3223-4567",
    "price": ""
  },
  {
    "lat": -1.43979,
    "lng": -48.48581,
    "category": "restaurant",
    "imgUrl": "/static/assets/img/avuado_restaurante.jpg",
    "title": "Avuado Restaurante",
    "rating": 4,
    "reviews": 0,
    "hours": "12:00–22:00",
    "address": "Tv. Dom Romualdo de Seixas, 823 – Umarizal, Belém – PA, 66055-200",
    "phone": "(91) 3345-6789",
    "price": "R$ 30–50"
  }
]
